<?xml version="1.0" encoding="UTF-8" standalone="no" ?><gpx xmlns="http://www.topografix.com/GPX/1/1" xmlns:gpxx="http://www.garmin.com/xmlschemas/GpxExtensions/v3" xmlns:wptx1="http://www.garmin.com/xmlschemas/WaypointExtension/v1" xmlns:gpxtpx="http://www.garmin.com/xmlschemas/TrackPointExtension/v1" creator="GPSMAP 64" version="1.1" xmlns:xsi="http://www.w3.org/2001/XMLSchema-instance" xsi:schemaLocation="http://www.topografix.com/GPX/1/1 http://www.topografix.com/GPX/1/1/gpx.xsd http://www.garmin.com/xmlschemas/GpxExtensions/v3 http://www8.garmin.com/xmlschemas/GpxExtensionsv3.xsd http://www.garmin.com/xmlschemas/TrackStatsExtension/v1 http://www8.garmin.com/xmlschemas/TrackStatsExtension.xsd http://www.garmin.com/xmlschemas/WaypointExtension/v1 http://www8.garmin.com/xmlschemas/WaypointExtensionv1.xsd http://www.garmin.com/xmlschemas/TrackPointExtension/v1 http://www.garmin.com/xmlschemas/TrackPointExtensionv1.xsd"><metadata><link href="http://www.garmin.com"><text>Garmin International</text></link><time>2016-06-09T02:02:59Z</time></metadata><wpt lat="5.063943" lon="103.102020"><ele>21.971785</ele><time>2016-06-09T02:02:59Z</time><name>RENJER AJIL</name><sym>Flag, Blue</sym></wpt><wpt lat="5.027031" lon="103.094671"><ele>26.382835</ele><time>2016-06-09T02:27:29Z</time><name>KG MACHANG</name><sym>Flag, Blue</sym></wpt><wpt lat="5.006408" lon="103.079369"><ele>23.882265</ele><time>2016-06-09T02:30:09Z</time><name>KG KUA</name><sym>Flag, Blue</sym></wpt><wpt lat="4.989944" lon="103.064742"><ele>27.077717</ele><time>2016-06-09T02:32:30Z</time><name>SG BERANG</name><sym>Flag, Blue</sym></wpt><wpt lat="4.953392" lon="103.062887"><ele>27.898560</ele><time>2016-06-09T02:36:03Z</time><name>KG BUKIT MENGAWAN</name><sym>Flag, Blue</sym></wpt><wpt lat="4.934759" lon="103.058646"><ele>25.318020</ele><time>2016-06-09T02:38:27Z</time><name>BELOK R</name><sym>Flag, Blue</sym></wpt><wpt lat="4.920408" lon="103.038846"><ele>25.273788</ele><time>2016-06-09T02:45:40Z</time><name>CLEAR</name><sym>Flag, Blue</sym></wpt><wpt lat="4.919313" lon="103.038414"><ele>26.621738</ele><time>2016-06-09T02:46:27Z</time><name>JMBTN KAYU</name><sym>Flag, Blue</sym></wpt><wpt lat="4.916117" lon="103.037577"><ele>48.671448</ele><time>2016-06-09T02:51:08Z</time><name>TO PB79</name><sym>Flag, Blue</sym></wpt><wpt lat="4.940034" lon="103.060816"><ele>31.033953</ele><time>2016-06-09T03:08:24Z</time><name>MENERONG</name><sym>Flag, Blue</sym></wpt><wpt lat="4.943888" lon="103.061921"><ele>30.447351</ele><time>2016-06-09T03:08:53Z</time><name>TURNR</name><sym>Flag, Blue</sym></wpt><wpt lat="4.899725" lon="102.993396"><ele>38.322548</ele><time>2016-06-09T03:21:29Z</time><name> TURN L</name><sym>Flag, Blue</sym></wpt><wpt lat="4.891588" lon="102.995769"><ele>42.325375</ele><time>2016-06-09T03:22:51Z</time><name>LEFT</name><sym>Flag, Blue</sym></wpt><wpt lat="4.901901" lon="103.007546"><ele>33.743328</ele><time>2016-06-09T03:30:18Z</time><name>PAGAR</name><sym>Flag, Blue</sym></wpt><wpt lat="4.903222" lon="103.009183"><ele>33.788391</ele><time>2016-06-09T03:34:40Z</time><name>PAGAR2</name><sym>Flag, Blue</sym></wpt><wpt lat="4.902835" lon="103.009082"><ele>22.826797</ele><time>2016-06-09T03:38:53Z</time><name>IN PB84</name><sym>Flag, Blue</sym></wpt><wpt lat="4.898756" lon="103.001595"><ele>20.653265</ele><time>2016-06-09T03:50:52Z</time><name>IN842</name><sym>Flag, Blue</sym></wpt><wpt lat="4.889041" lon="103.006408"><ele>60.741547</ele><time>2016-06-09T03:55:52Z</time><name>LEFT K 84</name><sym>Flag, Blue</sym></wpt><wpt lat="4.891295" lon="103.006252"><ele>41.519226</ele><time>2016-06-09T03:58:31Z</time><name>BELOK R</name><sym>Flag, Blue</sym></wpt><wpt lat="4.891672" lon="103.006940"><ele>50.686729</ele><time>2016-06-09T04:00:56Z</time><name>MASUK PB84</name><sym>Flag, Blue</sym></wpt><wpt lat="4.891700" lon="103.007656"><ele>59.727753</ele><time>2016-06-09T04:05:29Z</time><name>BALAK</name><cmt>3002</cmt><sym>Flag, Blue</sym></wpt><wpt lat="4.891547" lon="103.008078"><ele>77.296188</ele><time>2016-06-09T04:10:24Z</time><name>DLM PB84</name><sym>Flag, Blue</sym></wpt><wpt lat="4.891543" lon="103.008175"><ele>89.127457</ele><time>2016-06-09T04:11:42Z</time><name>BORDER84</name><sym>Flag, Blue</sym></wpt><wpt lat="4.891714" lon="103.007170"><ele>77.659729</ele><time>2016-06-09T04:21:43Z</time><name>BELOK L</name><sym>Flag, Blue</sym></wpt><wpt lat="4.873207" lon="103.025497"><ele>51.713799</ele><time>2016-06-09T04:32:55Z</time><name>BELOKR PB87 88 98</name><sym>Flag, Blue</sym></wpt><wpt lat="4.872965" lon="103.021470"><ele>54.709579</ele><time>2016-06-09T04:35:15Z</time><name>LLLL1</name><sym>Flag, Blue</sym></wpt><wpt lat="4.856595" lon="103.014342"><ele>101.558006</ele><time>2016-06-09T04:43:16Z</time><name>MATAU89 98</name><sym>Flag, Blue</sym></wpt><wpt lat="4.856876" lon="103.012547"><ele>80.972427</ele><time>2016-06-09T04:49:33Z</time><name>TO89</name><sym>Flag, Blue</sym></wpt><wpt lat="4.856509" lon="103.012900"><ele>98.381645</ele><time>2016-06-09T04:52:09Z</time><name>TO98</name><sym>Flag, Blue</sym></wpt><wpt lat="4.855831" lon="103.013787"><ele>97.855415</ele><time>2016-06-09T04:55:43Z</time><name>IN88</name><sym>Flag, Blue</sym></wpt><wpt lat="4.855599" lon="103.014202"><ele>97.647720</ele><time>2016-06-09T04:57:22Z</time><name>DLM88</name><sym>Flag, Blue</sym></wpt><wpt lat="4.875852" lon="103.023498"><ele>58.036312</ele><time>2016-06-09T05:25:12Z</time><name>KG PENEH</name><sym>Flag, Blue</sym></wpt><wpt lat="5.009123" lon="103.080879"><ele>35.963604</ele><time>2016-06-09T05:45:22Z</time><name>PETAK FENO</name><sym>Flag, Blue</sym></wpt></gpx>